[{"id":1,"name":"葉佳讓Yeh  Chia-jang","phone":"03-5315505","typestr":"8","city1":"新竹市","city2":"新竹市","address":"武陵西二路5號1樓  葉佳讓佛雕工作室","lng":"120.963317","lat":"24.818724"},{"id":2,"name":"曾進財Tseng  Chin-tsai","phone":"037-870816","typestr":"8","city1":"苗栗縣","city2":"三義鄉","address":"雙湖村雙草湖153號  尋根工作室","lng":"120.777082","lat":"24.429495"},{"id":3,"name":"林新義（拉阿浪）La-A-Lan","phone":"089-791560","typestr":"8","city1":"臺東縣","city2":"達仁鄉","address":"新化村新化路42號  卡茲‧達斯文化藝術工作室","lng":"120.856479","lat":"22.3820046"},{"id":4,"name":"王信一（一代）E-Dai","phone":"089-333243","typestr":"8","city1":"NA","city2":"NA","address":"臺東市山西路一段171號  臺灣藝達木雕炭化工坊","lng":"121.1242878","lat":"22.7546807"},{"id":5,"name":"段安國Tuan  An-guo","phone":"02-26669739","typestr":"10","city1":"新北市","city2":"新店區(新店市)","address":"蘭苑一路7號(花園新城)  段安國皮塑藝術工作室","lng":"121.552879","lat":"24.934565"},{"id":6,"name":"蕭在淦Hsiao  Tsai-kan","phone":"03-5232097","typestr":"10","city1":"新竹市","city2":"新竹市","address":"北門街102-2號1樓  蕭在淦花燈工作室","lng":"120.9660929","lat":"24.805163"},{"id":7,"name":"許金烺Hsu  Ching-lang","phone":"03-5262576","typestr":"3","city1":"新竹市","city2":"新竹市","address":"高峰路386巷100弄21號  許金烺玻璃藝術工坊","lng":"120.9646866","lat":"24.8039455"},{"id":8,"name":"黃安福Huang  An-fu","phone":"03-5269405","typestr":"3","city1":"新竹市","city2":"新竹市","address":"高峰路386巷100弄19號 安福玻璃雕塑室","lng":"120.9646866","lat":"24.8039455"},{"id":9,"name":"施秀菊（日夢日縵）Remereman","phone":"08-7992856","typestr":"3","city1":"屏東縣","city2":"三地門鄉","address":"三地村中正路二段9號  蜻蜓雅築珠藝工作室","lng":"120.652485","lat":"22.713457"},{"id":10,"name":"吳世興Wu  Shih-hsing","phone":"03-3816850","typestr":"3","city1":"桃園縣","city2":"大園鄉","address":"桃園高鐵特區大智路109號  青埔琉璃竹情藝坊","lng":"121.2168466","lat":"24.9375874"},{"id":11,"name":"湯潤清Tang  Jun-ching","phone":"037-370080","typestr":"2","city1":"苗栗縣","city2":"苗栗市","address":"僑育街15號  清窯工作室","lng":"120.819036","lat":"24.553643"},{"id":12,"name":"施至輝Shih  Chih-hui","phone":"04-7774181","typestr":"8","city1":"彰化縣","city2":"鹿港鎮","address":"復興路655號  施自和佛俱店","lng":"120.430596","lat":"24.060364"},{"id":13,"name":"陳俊宏（宏迪夫‧伊斯瑪哈汕）Hun Div . Is Ma Ha San","phone":"07-6618823","typestr":"8","city1":"高雄市","city2":"旗山區(旗山鎮)","address":"大德里大同街31號  南島木雕藝術坊","lng":"120.484559","lat":"22.8835704"},{"id":14,"name":"林阿隆Amid- afo","phone":"038-702693","typestr":"8","city1":"花蓮縣","city2":"光復鄉","address":"武昌街87號  瑪駱木雕工作室","lng":"121.4291432","lat":"23.6721611"},{"id":15,"name":"蔡清鈿Tsai  Ching-tien","phone":"039-056897","typestr":"8","city1":"宜蘭縣","city2":"壯圍鄉","address":"壯濱路五段186巷6號  蔡清鈿木雕工作室","lng":"121.814708","lat":"24.7846601"},{"id":16,"name":"蔡楊吉Tsai  Yang-chi","phone":"03-5281915","typestr":"8","city1":"新竹市","city2":"新竹市","address":"寶山路312號  添薪坊","lng":"121.0080251","lat":"24.7217505"},{"id":17,"name":"黃明鍾Huang  Ming-chung","phone":"037-875515","typestr":"8","city1":"苗栗縣","city2":"三義鄉","address":"西湖村伯公坑220號  黃明鍾工作室","lng":"120.740693","lat":"24.365754"},{"id":18,"name":"曾安國Tseng  An-guo","phone":"037-878456","typestr":"8","city1":"苗栗縣","city2":"三義鄉","address":"勝興村20份256號  曾安國木雕工房","lng":"120.7746616","lat":"24.3432827"},{"id":19,"name":"林進昌Lin  Chin-chang","phone":"037-881125","typestr":"8","city1":"苗栗縣","city2":"三義鄉","address":"龍騰村新莊3鄰21-1號  札木工坊","lng":"120.9417368","lat":"24.4892686"},{"id":20,"name":"施金福Shih  Chin-fu","phone":"04-7772552","typestr":"8","city1":"彰化縣","city2":"鹿港鎮","address":"東石里鹽埕巷臨3-34號","lng":"120.422753","lat":"24.0704179"},{"id":21,"name":"張敬Chang  Ching","phone":"05-5221103","typestr":"8","city1":"雲林縣","city2":"斗六市","address":"九老爺久安路215號  敬園（張敬工作園）","lng":"120.5124204","lat":"23.6815978"},{"id":22,"name":"張文議Chang  Wen-yi","phone":"05-5331182","typestr":"8","city1":"雲林縣","city2":"斗六市","address":"文彬街1號  議興工藝社","lng":"120.549817","lat":"23.712401"},{"id":23,"name":"蔡明海Tsai  Ming-hai","phone":"08-8330762","typestr":"8","city1":"屏東縣","city2":"新園鄉","address":"鹽埔村鹽新路25號  明海居木雕工作室","lng":"120.4406288","lat":"22.4823934"},{"id":24,"name":"陳培澤Chen  Pei-tse","phone":"049-2652593","typestr":"4","city1":"南投縣","city2":"竹山鎮","address":"延山里延山路47-6號  攻玉山房","lng":"120.722745","lat":"23.753934"},{"id":25,"name":"劉文煌Liu  Wen-huang","phone":"049-2635206","typestr":"6","city1":"南投縣","city2":"竹山鎮","address":"延祥里延祥路362巷7號  大禾竹藝工坊","lng":"120.704423","lat":"23.7594895"},{"id":26,"name":"陳銘堂Chen  Ming-tang","phone":"04-22244820","typestr":"7","city1":"臺中市","city2":"臺中市","address":"中山路291號  觀竹堂","lng":"120.5881788","lat":"24.2930209"},{"id":27,"name":"章潘三妹Awai","phone":"037-821226","typestr":"7","city1":"苗栗縣","city2":"南庄鄉","address":"蓬萊村19鄰117號  蓬萊工作坊","lng":"120.971916","lat":"24.551098"},{"id":28,"name":"黃塗山Huang  Tu-shan","phone":"049-2655106","typestr":"7","city1":"南投縣","city2":"竹山鎮","address":"頂林路199之9號  黃塗山竹編工作室","lng":"120.682104","lat":"23.7492311"},{"id":29,"name":"葉基祥Yeh  Chi-hsian","phone":"049-2636399","typestr":"6","city1":"南投縣","city2":"竹山鎮","address":"保甲路10號  藝\u003cU+90A8\u003e精品企業有限公司","lng":"120.710587","lat":"23.77488"},{"id":30,"name":"王松冠Wang  Song-kuan","phone":"049-2730637","typestr":"10","city1":"南投縣","city2":"名間鄉","address":"大坑村大廈巷66-66號  京麟雕塑文化園區","lng":"120.6709819","lat":"23.8565973"},{"id":31,"name":"許陳春Hsu   Chun Chen","phone":"04-7750806","typestr":"10","city1":"彰化縣","city2":"鹿港鎮","address":"四維路20號  巧昕立體繡","lng":"120.433022","lat":"24.060268"},{"id":32,"name":"陳逢顯 Chen Forng-shean","phone":"02-22125794","typestr":"10","city1":"新北市","city2":"新店區(新店市)","address":"安康路一段207巷17號  陳逢顯毫芒雕刻館","lng":"121.524974","lat":"24.9611839"},{"id":33,"name":"易昭文Yi  Chao-wen","phone":"038-534238","typestr":"10","city1":"花蓮縣","city2":"吉安鄉","address":"吉安路二段360號  禾丰堂空間美學","lng":"121.568193","lat":"23.980984"},{"id":34,"name":"黃忠山Huang  Chung-shan","phone":"02-29720872","typestr":"10","city1":"新北市","city2":"三重區(三重市)","address":"仁和街223號　豐誼珊瑚藝術坊","lng":"121.6739371","lat":"24.9157122"},{"id":35,"name":"林芳仕Lin  Fang-shih","phone":"049-2659807","typestr":"3","city1":"南投縣","city2":"竹山鎮","address":"大禮路181號  芳仕、璐昂琉璃藝術館","lng":"120.6788601","lat":"23.7605934"},{"id":36,"name":"陳一中Chen  I-jang","phone":"06-2378081","typestr":"9","city1":"臺南市","city2":"北區","address":"南園街96巷1號  陳一中紙雕館","lng":"120.2242136","lat":"23.007858"},{"id":37,"name":"吳敦厚Wu  Tun-ho","phone":"04-7776680","typestr":"9","city1":"彰化縣","city2":"鹿港鎮","address":"中山路310號  鹿港吳敦厚燈舖","lng":"120.433351","lat":"24.057277"},{"id":38,"name":"林金倉 Lin  Chin-tsang","phone":"08-7704399","typestr":"2","city1":"屏東縣","city2":"內埔鄉","address":"龍泉村東川路260號  再興交趾陶工坊","lng":"120.602615","lat":"22.671586"},{"id":39,"name":"高枝明Kao  Chih-ming","phone":"05-2754577","typestr":"2","city1":"嘉義市","city2":"嘉義市","address":"長榮街170號  工夫窯交趾陶工作室","lng":"120.4509786","lat":"23.4835466"},{"id":40,"name":"陳三火Chen  San-huo","phone":"06-5723257","typestr":"2","city1":"臺南市","city2":"麻豆區(麻豆鎮)","address":"油車里18–1號  陳三火剪黏工作室","lng":"120.244855","lat":"23.185987"},{"id":41,"name":"葉佐燁Yeh  Tso-yeh","phone":"03-5726205","typestr":"2","city1":"新竹市","city2":"新竹市","address":"高峰路221巷9號  竹塹古峰窯","lng":"120.9646866","lat":"24.8039455"},{"id":42,"name":"蔡榮祐Tsai  Jung-yu","phone":"04-23301602","typestr":"2","city1":"臺中市","city2":"霧峰區(霧峰鄉)","address":"本堂里育群路183號  廣達藝苑","lng":"120.9417368","lat":"24.2332076"},{"id":43,"name":"謝嘉亨Hsieh  Chia-heng","phone":"02-25418802","typestr":"2","city1":"臺北市","city2":"臺北市","address":"長安西路19巷2弄19-2號1樓  樂土工作室","lng":"121.5598345","lat":"25.091075"},{"id":44,"name":"蘇為忠Su  Wei-chung","phone":"02-26660280","typestr":"2","city1":"新北市","city2":"新店區(新店市)","address":"新烏路一段87巷67號  有陶室","lng":"121.5464319","lat":"24.9422295"},{"id":45,"name":"呂勝南Lu  Sheng-nan","phone":"05-2761958","typestr":"2","city1":"嘉義市","city2":"嘉義市","address":"林森東路319巷6號  龍鳳祥交趾陶藝術工作室","lng":"120.4702217","lat":"23.492261"},{"id":46,"name":"陳兆博Chen  Chao-po","phone":"039–873905","typestr":"2","city1":"宜蘭縣","city2":"礁溪鄉","address":"白雲村白石腳路182號  (水天需陶瓷創意設計工坊)","lng":"121.7822787","lat":"24.8411145"},{"id":47,"name":"張正成Chang  Cheng-chen","phone":"02-86303730","typestr":"2","city1":"新北市","city2":"八里區(八里鄉)","address":"民有街81號  張正成生活藝術工作室","lng":"121.475479","lat":"25.005608"},{"id":48,"name":"張家興 、吳玉玲Chang  Chia-hsing and Wu  Yu-ling","phone":"07-6814455","typestr":"2","city1":"高雄市","city2":"美濃區(美濃鎮)","address":"中山路二段550號  興陶房","lng":"120.5189197","lat":"22.8964486"},{"id":49,"name":"林清河Lin  Ching-ho","phone":"049-2781130","typestr":"2","city1":"南投縣","city2":"集集鎮","address":"田寮里楓林巷10號  添興窯陶藝村（集集蛇窯）","lng":"120.755518","lat":"23.83288"},{"id":50,"name":"林文嶽Lin  Wen-yueh","phone":"06-6850339","typestr":"2","city1":"臺南市","city2":"臺南市","address":"白河鎮崎內里38號  白荷陶坊","lng":"120.2512728","lat":"23.1416985"},{"id":51,"name":"曾明男Tseng  Ming-nan","phone":"049-2553840","typestr":"2","city1":"南投縣","city2":"草屯鎮","address":"中正路437-47號  曾明男工作室（虎山工坊）","lng":"120.704956","lat":"23.979443"},{"id":52,"name":"李明松Li  Ming-song","phone":"05-6967483","typestr":"2","city1":"雲林縣","city2":"崙背鄉","address":"仁愛街42-3號  老土藝術工作室","lng":"120.3516528","lat":"23.7588974"},{"id":53,"name":"張舒嵎Chang  Shu-yu","phone":"049-2631319","typestr":"2","city1":"南投縣","city2":"竹山鎮","address":"中崎里沉潭巷14-8號  荷花田陶工房","lng":"120.671805","lat":"23.751302"},{"id":54,"name":"林國隆Lin  Kuo-lung","phone":"049-2770967","typestr":"2","city1":"南投縣","city2":"水里鄉","address":"頂崁村水信路一段512巷21號\u003cbr\u003e　　　 水里蛇窯陶藝文化園區","lng":"120.8653252","lat":"23.8013278"},{"id":55,"name":"趙勝傑Chao  Sheng-chieh","phone":"04-25662056","typestr":"2","city1":"臺中市","city2":"大雅區(大雅鄉)","address":"大林路66巷12號  趙家窯工藝坊","lng":"120.6424995","lat":"24.231017"},{"id":56,"name":"葉志誠Yeh  Chih-cheng","phone":"04-8743573","typestr":"2","city1":"彰化縣","city2":"田中鎮","address":"三光里斗中路二段230巷248號  田中窯","lng":"120.558848","lat":"23.8807271"},{"id":57,"name":"陳光國Chen  Kuang-kuo","phone":"04-27027273","typestr":"2","city1":"臺中市","city2":"臺中市","address":"智惠街79巷5號  怡陶居工作室","lng":"120.9417368","lat":"24.2332076"},{"id":58,"name":"邱建清Chiu  Chien-ching","phone":"037-471834（晚上）","typestr":"2","city1":"新竹縣","city2":"峨眉鄉","address":"富興村\u003cU+713F\u003e寮坑9-2號  峨眉柴窯","lng":"121.0154354","lat":"24.6732375"},{"id":59,"name":"陳威恩Chen  Wei-en","phone":"03-5575167","typestr":"2","city1":"新竹縣","city2":"新豐鄉","address":"建興路二段92號  圭窯新彩燒陶藝工坊","lng":"120.9915773","lat":"24.8849783"},{"id":60,"name":"許宗換Hsu  Tsung-huan","phone":"04-8943743","typestr":"2","city1":"彰化縣","city2":"大城鄉","address":"豐美村輝耀路1號  陶園工作坊","lng":"120.3085883","lat":"23.8809328"},{"id":61,"name":"劉世平Liu  Shih-pin","phone":"","typestr":"2","city1":"屏東縣","city2":"潮州鎮","address":"復興路138巷10號  劉世平工作室","lng":"120.561389","lat":"22.519244"},{"id":62,"name":"廖勝文Liao  Sheng-wen","phone":"04-26864155","typestr":"5","city1":"臺中市","city2":"大甲區(大甲鎮)","address":"頂店里成功路16號  鐵山漆坊","lng":"120.62287","lat":"24.34679"},{"id":63,"name":"徐玉明Hsu  Yu-ming","phone":"049-2982076","typestr":"5","city1":"南投縣","city2":"埔里鎮","address":"北平街211-1號  龍南天然漆博物館","lng":"120.965598","lat":"23.9677074"},{"id":64,"name":"黃麗淑Huang  Li-shu","phone":"049-2569392","typestr":"5","city1":"南投縣","city2":"草屯鎮","address":"南埔里南坪路555巷25弄36號  游漆園","lng":"120.738758","lat":"23.9667863"},{"id":65,"name":"呂美麗Lu  Mai-li","phone":"039-880558","typestr":"11","city1":"宜蘭縣","city2":"礁溪鄉","address":"德陽村興農路322巷1號  呂美麗精雕藝術館","lng":"121.7838058","lat":"24.8155058"},{"id":66,"name":"黃寶琳Huang  Pao-lin","phone":"03-5890785","typestr":"2","city1":"新竹縣","city2":"新埔鎮","address":"楊新路一段922巷61弄6號  黃寶琳陶藝工作室","lng":"121.0822085","lat":"24.8286073"},{"id":67,"name":"龔一舫Kung  Yi-fang","phone":"07-7424379","typestr":"10","city1":"高雄市","city2":"鳳山區(鳳山市)","address":"瑞興里瑞竹路119號  竹香坊手工藝品中心．瓠藝天地","lng":"120.367823","lat":"22.626637"},{"id":68,"name":"陳茂輝Chen  Mao-hui","phone":"049-2737199","typestr":"8","city1":"南投縣","city2":"名間鄉","address":"員集路58-1號  茂輝工房","lng":"120.705691","lat":"23.835536"},{"id":69,"name":"彭春林Kaludasan","phone":"08-7992476","typestr":"10","city1":"屏東縣","city2":"內埔鄉","address":"水門村成功路19號  彭春林生活創意房","lng":"120.645724","lat":"22.709807"},{"id":70,"name":"曾文章Tseng  Wen-chang","phone":"08-7774175","typestr":"4","city1":"屏東縣","city2":"萬丹鄉","address":"寶厝村萬新路1409巷6號  小洞天藝術創作坊","lng":"120.4887466","lat":"22.5810491"},{"id":71,"name":"97多角化社區工藝扶植計畫--老繡才尋覓府城刺繡春天","phone":"06-2271253","typestr":"10","city1":"臺南市","city2":"臺南市","address":"永福路二段186-3號","lng":"120.2512728","lat":"23.1416985"},{"id":72,"name":"97社區 工藝扶植計畫--草鞋墩文化基因歷久彌新","phone":"049-2314892","typestr":"10","city1":"南投縣","city2":"草屯鎮","address":"草溪路978號","lng":"120.681445","lat":"23.9762529"},{"id":73,"name":"97多角化社區工藝扶植計畫--賦予客家藍衫鮮活生命","phone":"08-7896075","typestr":"10","city1":"屏東縣","city2":"萬巒鄉","address":"萬和村復興路13號","lng":"120.5674615","lat":"22.5709135"},{"id":74,"name":"97多角化社區工藝扶植計畫--布農部落雕染圓夢再出發","phone":"049-2742148","typestr":"10","city1":"南投縣","city2":"信義鄉","address":"雙龍村光復巷55號","lng":"120.950171","lat":"23.7854"},{"id":75,"name":"97多角化社區工藝扶植計畫--重現大甲藺編悠久盛名","phone":"04-26811196","typestr":"10","city1":"NA","city2":"NA","address":"437臺中縣大甲鎮建興里如意路27巷1-1號","lng":"120.6173728","lat":"24.4188313"},{"id":76,"name":"97多角化社區工藝扶植計畫--愛藺新氣象開拓品牌路","phone":"037-746410","typestr":"10","city1":"苗栗縣","city2":"苑裡鎮","address":"山腳里14鄰378號","lng":"120.698456","lat":"24.3841495"},{"id":77,"name":"97多角化社區工藝扶植計畫--就地取材開展編織與藍染","phone":"049-2601463","typestr":"10","city1":"南投縣","city2":"中寮鄉","address":"清水村瀧林巷5-5號","lng":"120.8096918","lat":"23.9582967"},{"id":78,"name":"97多角化社區工藝扶植計畫--復育沒落百年的北投藍染","phone":"02-28917453","typestr":"10","city1":"臺北市","city2":"北投區","address":"中央南路一段45號之1","lng":"121.501448","lat":"25.132164"},{"id":79,"name":"97多角化社區工藝扶植計畫--天纖家族聚焦梭織技藝","phone":"02-29184236","typestr":"10","city1":"NA","city2":"NA","address":"231臺北縣新店市永業路4巷3號3樓","lng":"121.533563","lat":"24.956282"},{"id":80,"name":"新鐘社區發展協會","phone":"(08)-7809615","typestr":"10","city1":"屏東縣","city2":"萬丹鄉","address":"萬全村成功街二段180號","lng":"120.4908184","lat":"22.5914925"},{"id":81,"name":"97多角化社區工藝扶植計畫--香灰入陶活用太子宮圖騰","phone":"06-6528326","typestr":"2","city1":"NA","city2":"NA","address":"730臺南縣新營市太南里276-1號","lng":"120.2653471","lat":"23.2860531"},{"id":82,"name":"97多角化社區工藝扶植計畫--竹碳陶酒瓶觸發產業契機","phone":"049-2781130","typestr":"2","city1":"南投縣","city2":"集集鎮","address":"田寮里楓林巷10號","lng":"120.755518","lat":"23.83288"},{"id":83,"name":"97多角化社區工藝扶植計畫--新港剪粘交趾巢活化再生","phone":"05-3745074","typestr":"2","city1":"嘉義縣","city2":"新港鄉","address":"新中路305號","lng":"120.343771","lat":"23.559899"},{"id":84,"name":"95社區工藝扶植計畫─陶染形塑蓮鄉夢","phone":"06-6850339","typestr":"2","city1":"NA","city2":"NA","address":"臺南縣白河鎮崎內里5鄰38號","lng":"120.437327","lat":"23.396943"},{"id":85,"name":"95社區工藝扶植計畫─大樹瓦窯紅色風華","phone":"07-6512037","typestr":"2","city1":"NA","city2":"NA","address":"高雄縣大樹鄉竹寮村竹寮94號","lng":"120.4263556","lat":"22.6652917"},{"id":86,"name":"95社區工藝扶植計畫─交趾燒龍泉再起","phone":"08-7704399","typestr":"2","city1":"屏東縣","city2":"內埔鄉","address":"龍泉村東川路260號","lng":"120.602615","lat":"22.671586"},{"id":87,"name":"95社區工藝扶植計畫─富寮「磚」情好「陶」氣","phone":"049-2553840","typestr":"2","city1":"南投縣","city2":"草屯鎮","address":"中正路437-47號","lng":"120.704956","lat":"23.979443"},{"id":88,"name":"95社區工藝扶植計畫─陶藝造鎮深情集集","phone":"049-2781130","typestr":"2","city1":"南投縣","city2":"集集鎮","address":"田寮里楓林巷9-3號","lng":"120.755518","lat":"23.83288"},{"id":89,"name":"96社區工藝扶植計畫─柴燒陶能量陶古今輝映","phone":"049-2781130","typestr":"2","city1":"南投縣","city2":"集集鎮","address":"田寮里楓林巷9-3號","lng":"120.755518","lat":"23.83288"},{"id":90,"name":"96社區工藝扶植計畫─窯響麥鄉凝聚鄉土情","phone":"04-25662056","typestr":"2","city1":"NA","city2":"NA","address":"428臺中縣大雅鄉大林路66巷12號","lng":"120.6424995","lat":"24.231017"},{"id":91,"name":"97多角化社區工藝扶植計畫--醞釀蓬萊塗風雲再起","phone":"04-22813106","typestr":"5","city1":"臺南市","city2":"東區","address":"建智街12號","lng":"120.6892316","lat":"24.1269254"},{"id":92,"name":"95社區工藝扶植計畫─草鼻部落頂真工藝情","phone":"038-741428","typestr":"11","city1":"花蓮縣","city2":"鳳林鎮","address":"山興里中興路39號","lng":"121.5001774","lat":"23.7644154"},{"id":93,"name":"97多角化社區工藝扶植計畫--建構原住民工藝共榮平台","phone":"089-228107","typestr":"11","city1":"NA","city2":"NA","address":"950臺東市中興路二段200巷7號","lng":"121.1282169","lat":"22.7679249"},{"id":94,"name":"96社區工藝扶植計畫─找回鄒族人與自然的連繫","phone":"05-2661804","typestr":"10","city1":"嘉義縣","city2":"阿里山鄉","address":"來吉村四鄰113號","lng":"120.769476","lat":"23.5342072"},{"id":95,"name":"苑裡藺草文化館 Yuan-Li Reed Cultural Museum","phone":"（037）741319","typestr":"10","city1":"苗栗縣","city2":"苑裡鎮","address":"山腳里灣麗路99號","lng":"120.6918803","lat":"24.4146321"},{"id":96,"name":"東洋趣味茶藝館 Japanese entertaining tea-house","phone":"049-2302309","typestr":"11","city1":"南投縣","city2":"草屯鎮","address":"虎山路802號","lng":"120.685988","lat":"23.976537"},{"id":97,"name":"金山面藝術生活館  Jinshanmian Art Restaurant","phone":"03-5636296","typestr":"11","city1":"新竹市","city2":"新竹市","address":"金山十三街十三號","lng":"120.9646866","lat":"24.8039455"},{"id":98,"name":"典藏淡水藝術館(淡水文化股份有限公司) Unique Danshui Art Museum","phone":"(02) 26296600","typestr":"11","city1":"NA","city2":"NA","address":"臺北縣淡水鎮中正路168號(淡水老街中)","lng":"121.4405897","lat":"25.1697994"},{"id":99,"name":"台華陶瓷有限公司 Tai-Hua Ceramics CO  LTD","phone":"（02）2678-0000","typestr":"2","city1":"NA","city2":"NA","address":"總 公 司 ：臺北縣鶯歌鎮中正一路426-434號","lng":"120.2670538","lat":"23.1839362"},{"id":100,"name":"傑作陶藝有限公司 Jie-Zuo Pottery Co  LTD","phone":"（02）2679-6166","typestr":"2","city1":"NA","city2":"NA","address":"臺北縣鶯歌鎮中正一路379號","lng":"121.3531521","lat":"24.957023"},{"id":101,"name":"陳景林Chen  Ching-lin","phone":"049-2350607","typestr":"10","city1":"南投縣","city2":"南投市","address":"向上二路18號","lng":"120.6879644","lat":"23.9517238"},{"id":102,"name":"林昭慶Lin  Chao-ching","phone":"02-27991232","typestr":"2","city1":"臺北市","city2":"內湖區","address":"文德路208巷62號1樓  古采藝創環境有限公司","lng":"121.583352","lat":"25.0761609"},{"id":103,"name":"吳明儀 Wu  Ming-yi","phone":"02-26701000","typestr":"2","city1":"新北市","city2":"鶯歌區(鶯歌鎮)","address":"永吉街39號  WU GALLERY (文生窯)","lng":"121.335547","lat":"24.957012"},{"id":104,"name":"張信裕Chang  Hsin-yu","phone":"037-876966","typestr":"8","city1":"苗栗縣","city2":"三義鄉","address":"廣盛村八股路館前2巷1-11號  亞馬木雕坊-張信裕工作室","lng":"120.7646183","lat":"24.4047411"},{"id":105,"name":"王龍德Wang  Lung-te / Tony Ong","phone":"037-762999","typestr":"2","city1":"苗栗縣","city2":"通霄鎮","address":"圳頭里2鄰25之25號  醉陶工作室","lng":"120.7252689","lat":"24.4686979"},{"id":106,"name":"陳遠芳Chen  Yuan-fang","phone":"04-22476477","typestr":"1","city1":"臺中市","city2":"北屯區","address":"梅川東路四段103號  遠芳金屬工藝坊","lng":"120.680092","lat":"24.1743979"},{"id":107,"name":"史嘉祥Shih  Chia-hsiang","phone":"04-25153340","typestr":"5","city1":"臺中市","city2":"豐原區(豐原市)","address":"水源路中坑巷21號  憶林舍工作室","lng":"120.750127","lat":"24.2518209"},{"id":108,"name":"黃紗榮 Huang  Sha-jung","phone":"04-7707799","typestr":"8","city1":"彰化縣","city2":"福興鄉","address":"福寶村新生路7之7號  黃紗榮木雕坊","lng":"120.412362","lat":"24.040561"},{"id":109,"name":"李榮烈 Li  Jung-lieh","phone":"049-2321217","typestr":"7","city1":"南投縣","city2":"草屯鎮","address":"碧山路14號11樓3-1  李榮烈藝師工作室","lng":"120.687517","lat":"23.977974"},{"id":110,"name":"邱錦緞 Chiu  Chin-tuan","phone":"049-2652878","typestr":"7","city1":"南投縣","city2":"竹山鎮","address":"延平里東鄉路5-85號  錦緞竹編工作室","lng":"120.715502","lat":"23.766383"},{"id":111,"name":"王賢民 Wang  Hsien-min","phone":"049-2367588","typestr":"5","city1":"南投縣","city2":"草屯鎮","address":"文化街33號  美研漆藝工坊","lng":"120.6845824","lat":"23.9828463"},{"id":112,"name":"林善述 Lin  Shan-shu","phone":"049-2562016","typestr":"2","city1":"南投縣","city2":"草屯鎮","address":"中正路218-32號  砌陶坊","lng":"120.738132","lat":"23.983665"},{"id":113,"name":"陳金鐘 (壽彝)Chen  Chin-chung（Shou-yi）","phone":"06-2917722","typestr":"10","city1":"臺南市","city2":"南區","address":"三官路141號  壽彝藝廊","lng":"120.1937262","lat":"22.9784652"},{"id":114,"name":"吳宗賢Wu  Tsung-hsien","phone":"07-3893898","typestr":"3","city1":"高雄市","city2":"三民區","address":"莊敬路232號  丹青藝術玻璃","lng":"120.319533","lat":"22.651651"}]